[
    {
        "id": 1847947,
        "name": "Shingū",
        "state": "",
        "country": "JP",
        "coord": {
            "lon": 135.983337,
            "lat": 33.73333
        }
    },
    {
        "id": 1847963,
        "name": "Atsugi",
        "state": "",
        "country": "JP",
        "coord": {
            "lon": 139.359726,
            "lat": 35.438889
        }
    },
    {
        "id": 1847966,
        "name": "Akashi",
        "state": "",
        "country": "JP",
        "coord": {
            "lon": 134.983337,
            "lat": 34.633331
        }
    },
    {
        "id": 1847968,
        "name": "Zushi",
        "state": "",
        "country": "JP",
        "coord": {
            "lon": 139.585556,
            "lat": 35.291672
        }
    },
    {
        "id": 1847979,
        "name": "Awazuchō",
        "state": "",
        "country": "JP",
        "coord": {
            "lon": 135.899994,
            "lat": 34.98333
        }
    },
    {
        "id": 1847996,
        "name": "Zaōmachi",
        "state": "",
        "country": "JP",
        "coord": {
            "lon": 138.850006,
            "lat": 37.450001
        }
    },
    {
        "id": 1848002,
        "name": "Zamami",
        "state": "",
        "country": "JP",
        "coord": {
            "lon": 127.301109,
            "lat": 26.224171
        }
    },
    {
        "id": 1848004,
        "name": "Zama",
        "state": "",
        "country": "JP",
        "coord": {
            "lon": 139.388611,
            "lat": 35.488892
        }
    },
    {
        "id": 1848015,
        "name": "Yuzawa",
        "state": "",
        "country": "JP",
        "coord": {
            "lon": 138.816666,
            "lat": 36.933331
        }
    },
    {
        "id": 1848016,
        "name": "Yuza",
        "state": "",
        "country": "JP",
        "coord": {
            "lon": 139.916672,
            "lat": 39.0
        }
    },
    {
        "id": 1848028,
        "name": "Yusuhara",
        "state": "",
        "country": "JP",
        "coord": {
            "lon": 132.916672,
            "lat": 33.383331
        }
    },
    {
        "id": 1848040,
        "name": "Yūrakuchō",
        "state": "",
        "country": "JP",
        "coord": {
            "lon": 139.766663,
            "lat": 35.666672
        }
    },
    {
        "id": 1848049,
        "name": "Yura",
        "state": "",
        "country": "JP",
        "coord": {
            "lon": 133.75,
            "lat": 35.48333
        }
    },
    {
        "id": 1848087,
        "name": "Yukuhashi",
        "state": "",
        "country": "JP",
        "coord": {
            "lon": 130.983002,
            "lat": 33.728729
        }
    },
    {
        "id": 1848096,
        "name": "Yūki",
        "state": "",
        "country": "JP",
        "coord": {
            "lon": 139.883331,
            "lat": 36.299999
        }
    },
    {
        "id": 1848113,
        "name": "Yugawara",
        "state": "",
        "country": "JP",
        "coord": {
            "lon": 139.066666,
            "lat": 35.150002
        }
    },
    {
        "id": 1848119,
        "name": "Yugawa",
        "state": "",
        "country": "JP",
        "coord": {
            "lon": 138.233337,
            "lat": 36.033329
        }
    },
    {
        "id": 1848131,
        "name": "Yuasa",
        "state": "",
        "country": "JP",
        "coord": {
            "lon": 135.183334,
            "lat": 34.033329
        }
    },
    {
        "id": 1848169,
        "name": "Yoshino-chō",
        "state": "",
        "country": "JP",
        "coord": {
            "lon": 135.857681,
            "lat": 34.396111
        }
    },
    {
        "id": 1848188,
        "name": "Yoshikawa",
        "state": "",
        "country": "JP",
        "coord": {
            "lon": 139.839447,
            "lat": 35.885281
        }
    },
    {
        "id": 1848193,
        "name": "Yoshii",
        "state": "",
        "country": "JP",
        "coord": {
            "lon": 138.399994,
            "lat": 38.049999
        }
    },
    {
        "id": 1848194,
        "name": "Yoshii",
        "state": "",
        "country": "JP",
        "coord": {
            "lon": 138.983337,
            "lat": 36.25
        }
    },
    {
        "id": 1848200,
        "name": "Yoshie",
        "state": "",
        "country": "JP",
        "coord": {
            "lon": 136.172287,
            "lat": 35.987041
        }
    },
    {
        "id": 1848210,
        "name": "Yoshida-kasugachō",
        "state": "",
        "country": "JP",
        "coord": {
            "lon": 138.883331,
            "lat": 37.683331
        }
    },
    {
        "id": 1848211,
        "name": "Yoshida",
        "state": "",
        "country": "JP",
        "coord": {
            "lon": 138.216675,
            "lat": 36.666672
        }
    },
    {
        "id": 1848230,
        "name": "Miimachi-yoromi",
        "state": "",
        "country": "JP",
        "coord": {
            "lon": 136.966675,
            "lat": 37.316669
        }
    },
    {
        "id": 1848243,
        "name": "Yorii",
        "state": "",
        "country": "JP",
        "coord": {
            "lon": 139.199997,
            "lat": 36.116669
        }
    },
    {
        "id": 1848254,
        "name": "Yono",
        "state": "",
        "country": "JP",
        "coord": {
            "lon": 139.633331,
            "lat": 35.883331
        }
    },
    {
        "id": 1848266,
        "name": "Yonakuni",
        "state": "",
        "country": "JP",
        "coord": {
            "lon": 123.0,
            "lat": 24.466669
        }
    },
    {
        "id": 1848277,
        "name": "Yonago",
        "state": "",
        "country": "JP",
        "coord": {
            "lon": 133.333328,
            "lat": 35.433331
        }
    },
    {
        "id": 1848281,
        "name": "Yonabaru",
        "state": "",
        "country": "JP",
        "coord": {
            "lon": 127.753891,
            "lat": 26.201389
        }
    },
    {
        "id": 1848305,
        "name": "Yokota",
        "state": "",
        "country": "JP",
        "coord": {
            "lon": 139.383331,
            "lat": 35.75
        }
    },
    {
        "id": 1848313,
        "name": "Yokosuka",
        "state": "",
        "country": "JP",
        "coord": {
            "lon": 139.667221,
            "lat": 35.283611
        }
    },
    {
        "id": 1848354,
        "name": "Yokohama",
        "state": "",
        "country": "JP",
        "coord": {
            "lon": 139.642502,
            "lat": 35.447781
        }
    },
    {
        "id": 1848364,
        "name": "Yokodaidō",
        "state": "",
        "country": "JP",
        "coord": {
            "lon": 132.899994,
            "lat": 34.400002
        }
    },
    {
        "id": 1848373,
        "name": "Yokkaichi",
        "state": "",
        "country": "JP",
        "coord": {
            "lon": 136.616669,
            "lat": 34.966671
        }
    },
    {
        "id": 1848382,
        "name": "Youkaichi",
        "state": "",
        "country": "JP",
        "coord": {
            "lon": 136.197678,
            "lat": 35.116261
        }
    },
    {
        "id": 1848409,
        "name": "Yobimatsu",
        "state": "",
        "country": "JP",
        "coord": {
            "lon": 133.766663,
            "lat": 34.5
        }
    },
    {
        "id": 1848439,
        "name": "Yawata",
        "state": "",
        "country": "JP",
        "coord": {
            "lon": 135.702698,
            "lat": 34.87009
        }
    },
    {
        "id": 1848440,
        "name": "Yatsuzawa",
        "state": "",
        "country": "JP",
        "coord": {
            "lon": 139.116669,
            "lat": 35.616669
        }
    },
    {
        "id": 1848445,
        "name": "Honmachi",
        "state": "",
        "country": "JP",
        "coord": {
            "lon": 130.600006,
            "lat": 32.5
        }
    },
    {
        "id": 1848447,
        "name": "Yatsuomachi-higashikumisaka",
        "state": "",
        "country": "JP",
        "coord": {
            "lon": 137.133331,
            "lat": 36.566669
        }
    },
    {
        "id": 1848482,
        "name": "Yasugichō",
        "state": "",
        "country": "JP",
        "coord": {
            "lon": 133.25,
            "lat": 35.433331
        }
    },
    {
        "id": 1848489,
        "name": "Yasu-shi",
        "state": "",
        "country": "JP",
        "coord": {
            "lon": 136.02327,
            "lat": 35.068008
        }
    },
    {
        "id": 1848498,
        "name": "Yashiro",
        "state": "",
        "country": "JP",
        "coord": {
            "lon": 134.966675,
            "lat": 34.916672
        }
    },
    {
        "id": 1848499,
        "name": "Yashio",
        "state": "",
        "country": "JP",
        "coord": {
            "lon": 139.83905,
            "lat": 35.822552
        }
    },
    {
        "id": 1848518,
        "name": "Yaotsu",
        "state": "",
        "country": "JP",
        "coord": {
            "lon": 137.149994,
            "lat": 35.466671
        }
    },
    {
        "id": 1848522,
        "name": "Yao",
        "state": "",
        "country": "JP",
        "coord": {
            "lon": 135.600006,
            "lat": 34.616669
        }
    },
    {
        "id": 1848528,
        "name": "Yanohama",
        "state": "",
        "country": "JP",
        "coord": {
            "lon": 136.199997,
            "lat": 34.066669
        }
    },
    {
        "id": 1848550,
        "name": "Yanai",
        "state": "",
        "country": "JP",
        "coord": {
            "lon": 132.116669,
            "lat": 33.966671
        }
    },
    {
        "id": 1848573,
        "name": "Yanagawa",
        "state": "",
        "country": "JP",
        "coord": {
            "lon": 130.399994,
            "lat": 33.166672
        }
    },
    {
        "id": 1848575,
        "name": "Yanadachō",
        "state": "",
        "country": "JP",
        "coord": {
            "lon": 139.483337,
            "lat": 36.299999
        }
    },
    {
        "id": 1848593,
        "name": "Yamato-Takada",
        "state": "",
        "country": "JP",
        "coord": {
            "lon": 135.75,
            "lat": 34.51667
        }
    },
    {
        "id": 1848598,
        "name": "Yamatominami",
        "state": "",
        "country": "JP",
        "coord": {
            "lon": 139.456116,
            "lat": 35.46722
        }
    },
    {
        "id": 1848612,
        "name": "Yamata",
        "state": "",
        "country": "JP",
        "coord": {
            "lon": 139.816666,
            "lat": 36.150002
        }
    },
    {
        "id": 1848633,
        "name": "Yamazakichō-nakabirose",
        "state": "",
        "country": "JP",
        "coord": {
            "lon": 134.550003,
            "lat": 35.0
        }
    },
    {
        "id": 1848649,
        "name": "Yamanashi",
        "state": "",
        "country": "JP",
        "coord": {
            "lon": 138.608002,
            "lat": 35.61602
        }
    },
    {
        "id": 1848667,
        "name": "Yamakita",
        "state": "",
        "country": "JP",
        "coord": {
            "lon": 139.073334,
            "lat": 35.35667
        }
    },
    {
        "id": 1848681,
        "name": "Yamaguchi",
        "state": "",
        "country": "JP",
        "coord": {
            "lon": 131.570465,
            "lat": 34.206081
        }
    },
    {
        "id": 1848689,
        "name": "Yamaguchi",
        "state": "",
        "country": "JP",
        "coord": {
            "lon": 131.47139,
            "lat": 34.185829
        }
    },
    {
        "id": 1848705,
        "name": "Yamaga",
        "state": "",
        "country": "JP",
        "coord": {
            "lon": 130.683334,
            "lat": 33.01667
        }
    },
    {
        "id": 1848706,
        "name": "Yamae",
        "state": "",
        "country": "JP",
        "coord": {
            "lon": 130.566666,
            "lat": 33.466671
        }
    },
    {
        "id": 1848739,
        "name": "Yakuin-Horibata",
        "state": "",
        "country": "JP",
        "coord": {
            "lon": 130.399994,
            "lat": 33.583328
        }
    },
    {
        "id": 1848764,
        "name": "Yakage",
        "state": "",
        "country": "JP",
        "coord": {
            "lon": 133.583328,
            "lat": 34.616669
        }
    },
    {
        "id": 1848774,
        "name": "Yaizu",
        "state": "",
        "country": "JP",
        "coord": {
            "lon": 138.333328,
            "lat": 34.866669
        }
    },
    {
        "id": 1848776,
        "name": "Yaita",
        "state": "",
        "country": "JP",
        "coord": {
            "lon": 139.933334,
            "lat": 36.799999
        }
    },
    {
        "id": 1848841,
        "name": "Yabutani",
        "state": "",
        "country": "JP",
        "coord": {
            "lon": 134.466675,
            "lat": 34.799999
        }
    },
    {
        "id": 1848848,
        "name": "Yabuhana",
        "state": "",
        "country": "JP",
        "coord": {
            "lon": 139.467224,
            "lat": 35.408329
        }
    },
    {
        "id": 1848852,
        "name": "Yabu",
        "state": "",
        "country": "JP",
        "coord": {
            "lon": 134.816666,
            "lat": 35.383331
        }
    },
    {
        "id": 1848899,
        "name": "Warabo",
        "state": "",
        "country": "JP",
        "coord": {
            "lon": 139.0,
            "lat": 34.916672
        }
    },
    {
        "id": 1848903,
        "name": "Warabi",
        "state": "",
        "country": "JP",
        "coord": {
            "lon": 139.704437,
            "lat": 35.826389
        }
    },
    {
        "id": 1848906,
        "name": "Wano",
        "state": "",
        "country": "JP",
        "coord": {
            "lon": 129.699997,
            "lat": 28.41667
        }
    },
    {
        "id": 1848919,
        "name": "Wakinohamachō",
        "state": "",
        "country": "JP",
        "coord": {
            "lon": 135.216675,
            "lat": 34.700001
        }
    },
    {
        "id": 1848933,
        "name": "Wakimachi",
        "state": "",
        "country": "JP",
        "coord": {
            "lon": 134.149994,
            "lat": 34.066669
        }
    },
    {
        "id": 1848935,
        "name": "Wake",
        "state": "",
        "country": "JP",
        "coord": {
            "lon": 134.133331,
            "lat": 34.799999
        }
    },
    {
        "id": 1848938,
        "name": "Wakayama",
        "state": "",
        "country": "JP",
        "coord": {
            "lon": 135.511124,
            "lat": 33.914581
        }
    },
    {
        "id": 1848949,
        "name": "Wakasa",
        "state": "",
        "country": "JP",
        "coord": {
            "lon": 134.399994,
            "lat": 35.333328
        }
    },
    {
        "id": 1848976,
        "name": "Wajima",
        "state": "",
        "country": "JP",
        "coord": {
            "lon": 136.899994,
            "lat": 37.400002
        }
    },
    {
        "id": 1848988,
        "name": "Wadomari",
        "state": "",
        "country": "JP",
        "coord": {
            "lon": 128.649994,
            "lat": 27.383329
        }
    },
    {
        "id": 1848991,
        "name": "Wadayama",
        "state": "",
        "country": "JP",
        "coord": {
            "lon": 134.866669,
            "lat": 35.316669
        }
    },
    {
        "id": 1849053,
        "name": "Utsunomiya",
        "state": "",
        "country": "JP",
        "coord": {
            "lon": 139.883606,
            "lat": 36.56583
        }
    },
    {
        "id": 1849069,
        "name": "Uto",
        "state": "",
        "country": "JP",
        "coord": {
            "lon": 130.666672,
            "lat": 32.683331
        }
    },
    {
        "id": 1849073,
        "name": "Utazu",
        "state": "",
        "country": "JP",
        "coord": {
            "lon": 133.816666,
            "lat": 34.299999
        }
    },
    {
        "id": 1849094,
        "name": "Usuki",
        "state": "",
        "country": "JP",
        "coord": {
            "lon": 131.787781,
            "lat": 33.108059
        }
    },
    {
        "id": 1849154,
        "name": "Ushibukamachi",
        "state": "",
        "country": "JP",
        "coord": {
            "lon": 130.022781,
            "lat": 32.190559
        }
    },
    {
        "id": 1849168,
        "name": "Usa",
        "state": "",
        "country": "JP",
        "coord": {
            "lon": 133.449997,
            "lat": 33.450001
        }
    },
    {
        "id": 1849183,
        "name": "Ureshinomachi-shimojuku",
        "state": "",
        "country": "JP",
        "coord": {
            "lon": 129.983337,
            "lat": 33.099998
        }
    },
    {
        "id": 1849186,
        "name": "Urayasu",
        "state": "",
        "country": "JP",
        "coord": {
            "lon": 139.888611,
            "lat": 35.670559
        }
    },
    {
        "id": 1849237,
        "name": "Uozu",
        "state": "",
        "country": "JP",
        "coord": {
            "lon": 137.399994,
            "lat": 36.799999
        }
    },
    {
        "id": 1849274,
        "name": "Uno",
        "state": "",
        "country": "JP",
        "coord": {
            "lon": 133.949997,
            "lat": 34.48333
        }
    },
    {
        "id": 1849299,
        "name": "Umi",
        "state": "",
        "country": "JP",
        "coord": {
            "lon": 130.5,
            "lat": 33.566669
        }
    },
    {
        "id": 1849344,
        "name": "Uki",
        "state": "",
        "country": "JP",
        "coord": {
            "lon": 130.083328,
            "lat": 32.799999
        }
    },
    {
        "id": 1849347,
        "name": "Uken",
        "state": "",
        "country": "JP",
        "coord": {
            "lon": 129.233337,
            "lat": 28.299999
        }
    },
    {
        "id": 1849367,
        "name": "Ujiie",
        "state": "",
        "country": "JP",
        "coord": {
            "lon": 139.966675,
            "lat": 36.683331
        }
    },
    {
        "id": 1849372,
        "name": "Uji",
        "state": "",
        "country": "JP",
        "coord": {
            "lon": 135.800003,
            "lat": 34.883331
        }
    },
    {
        "id": 1849407,
        "name": "Uenohara",
        "state": "",
        "country": "JP",
        "coord": {
            "lon": 139.116669,
            "lat": 35.616669
        }
    },
    {
        "id": 1849410,
        "name": "Ueno",
        "state": "",
        "country": "JP",
        "coord": {
            "lon": 138.75,
            "lat": 37.183331
        }
    },
    {
        "id": 1849414,
        "name": "Ueno-ebisumachi",
        "state": "",
        "country": "JP",
        "coord": {
            "lon": 136.133331,
            "lat": 34.75
        }
    },
    {
        "id": 1849423,
        "name": "Ueki",
        "state": "",
        "country": "JP",
        "coord": {
            "lon": 139.516663,
            "lat": 35.349998
        }
    },
    {
        "id": 1849424,
        "name": "Uekimachi-mōno",
        "state": "",
        "country": "JP",
        "coord": {
            "lon": 130.683334,
            "lat": 32.900002
        }
    },
    {
        "id": 1849429,
        "name": "Ueda",
        "state": "",
        "country": "JP",
        "coord": {
            "lon": 138.266663,
            "lat": 36.400002
        }
    },
    {
        "id": 1849498,
        "name": "Ube",
        "state": "",
        "country": "JP",
        "coord": {
            "lon": 131.251114,
            "lat": 33.943062
        }
    },
    {
        "id": 1849519,
        "name": "Tsuyama",
        "state": "",
        "country": "JP",
        "coord": {
            "lon": 134.0,
            "lat": 35.049999
        }
    },
    {
        "id": 1849539,
        "name": "Tsushima",
        "state": "",
        "country": "JP",
        "coord": {
            "lon": 136.716675,
            "lat": 35.166672
        }
    },
    {
        "id": 1849561,
        "name": "Tsurusaki",
        "state": "",
        "country": "JP",
        "coord": {
            "lon": 131.684433,
            "lat": 33.240002
        }
    },
    {
        "id": 1849563,
        "name": "Tsuruoka",
        "state": "",
        "country": "JP",
        "coord": {
            "lon": 139.821671,
            "lat": 38.721668
        }
    },
    {
        "id": 1849584,
        "name": "Tsurugi-asahimachi",
        "state": "",
        "country": "JP",
        "coord": {
            "lon": 136.633331,
            "lat": 36.450001
        }
    },
    {
        "id": 1849588,
        "name": "Tsurugasaki",
        "state": "",
        "country": "JP",
        "coord": {
            "lon": 136.983337,
            "lat": 34.883331
        }
    },
    {
        "id": 1849592,
        "name": "Tsuruga",
        "state": "",
        "country": "JP",
        "coord": {
            "lon": 136.055801,
            "lat": 35.64547
        }
    },
    {
        "id": 1849621,
        "name": "Tsunō",
        "state": "",
        "country": "JP",
        "coord": {
            "lon": 131.566666,
            "lat": 32.25
        }
    },
    {
        "id": 1849633,
        "name": "Tsunagi",
        "state": "",
        "country": "JP",
        "coord": {
            "lon": 130.449997,
            "lat": 32.23333
        }
    },
    {
        "id": 1849647,
        "name": "Tsuma",
        "state": "",
        "country": "JP",
        "coord": {
            "lon": 131.399994,
            "lat": 32.099998
        }
    },
    {
        "id": 1849661,
        "name": "Tsukumiura",
        "state": "",
        "country": "JP",
        "coord": {
            "lon": 131.857224,
            "lat": 33.07056
        }
    },
    {
        "id": 1849706,
        "name": "Tsukawaki",
        "state": "",
        "country": "JP",
        "coord": {
            "lon": 131.149994,
            "lat": 33.26667
        }
    },
    {
        "id": 1849708,
        "name": "Tsukasamachi",
        "state": "",
        "country": "JP",
        "coord": {
            "lon": 136.766663,
            "lat": 35.416672
        }
    },
    {
        "id": 1849713,
        "name": "Tsukaguchichō",
        "state": "",
        "country": "JP",
        "coord": {
            "lon": 135.416672,
            "lat": 34.75
        }
    },
    {
        "id": 1849729,
        "name": "Tsuiki",
        "state": "",
        "country": "JP",
        "coord": {
            "lon": 131.037415,
            "lat": 33.67239
        }
    },
    {
        "id": 1849771,
        "name": "Tsubota",
        "state": "",
        "country": "JP",
        "coord": {
            "lon": 139.533325,
            "lat": 34.049999
        }
    },
    {
        "id": 1849782,
        "name": "Tsubata",
        "state": "",
        "country": "JP",
        "coord": {
            "lon": 136.733337,
            "lat": 36.666672
        }
    },
    {
        "id": 1849788,
        "name": "Tsubame",
        "state": "",
        "country": "JP",
        "coord": {
            "lon": 138.933334,
            "lat": 37.650002
        }
    },
    {
        "id": 1849796,
        "name": "Tsu",
        "state": "",
        "country": "JP",
        "coord": {
            "lon": 136.508606,
            "lat": 34.730282
        }
    },
    {
        "id": 1849798,
        "name": "Tozawa",
        "state": "",
        "country": "JP",
        "coord": {
            "lon": 139.683334,
            "lat": 38.633331
        }
    },
    {
        "id": 1849809,
        "name": "Toyota-shi",
        "state": "",
        "country": "JP",
        "coord": {
            "lon": 137.301498,
            "lat": 35.141178
        }
    },
    {
        "id": 1849814,
        "name": "Toyota",
        "state": "",
        "country": "JP",
        "coord": {
            "lon": 137.149994,
            "lat": 35.083328
        }
    },
    {
        "id": 1849817,
        "name": "Toyoshina",
        "state": "",
        "country": "JP",
        "coord": {
            "lon": 137.901077,
            "lat": 36.299911
        }
    },
    {
        "id": 1849831,
        "name": "Toyooka",
        "state": "",
        "country": "JP",
        "coord": {
            "lon": 134.833328,
            "lat": 35.533329
        }
    },
    {
        "id": 1849837,
        "name": "Toyonaka",
        "state": "",
        "country": "JP",
        "coord": {
            "lon": 135.469315,
            "lat": 34.78244
        }
    },
    {
        "id": 1849845,
        "name": "Toyokawa",
        "state": "",
        "country": "JP",
        "coord": {
            "lon": 137.399994,
            "lat": 34.816669
        }
    },
    {
        "id": 1849846,
        "name": "Toyohashi",
        "state": "",
        "country": "JP",
        "coord": {
            "lon": 137.383331,
            "lat": 34.76667
        }
    },
    {
        "id": 1849850,
        "name": "Toyohama",
        "state": "",
        "country": "JP",
        "coord": {
            "lon": 136.933334,
            "lat": 34.700001
        }
    },
    {
        "id": 1849872,
        "name": "Toyama-ken",
        "state": "",
        "country": "JP",
        "coord": {
            "lon": 137.265137,
            "lat": 36.639259
        }
    },
    {
        "id": 1849876,
        "name": "Toyama",
        "state": "",
        "country": "JP",
        "coord": {
            "lon": 137.211395,
            "lat": 36.695278
        }
    },
    {
        "id": 1849890,
        "name": "Tottori",
        "state": "",
        "country": "JP",
        "coord": {
            "lon": 133.850815,
            "lat": 35.367859
        }
    },
    {
        "id": 1849892,
        "name": "Tottori",
        "state": "",
        "country": "JP",
        "coord": {
            "lon": 134.233337,
            "lat": 35.5
        }
    },
    {
        "id": 1849897,
        "name": "Totsuka chō",
        "state": "",
        "country": "JP",
        "coord": {
            "lon": 139.533325,
            "lat": 35.400002
        }
    },
    {
        "id": 1849904,
        "name": "Tosu",
        "state": "",
        "country": "JP",
        "coord": {
            "lon": 130.516663,
            "lat": 33.366669
        }
    },
    {
        "id": 1849977,
        "name": "Toriimatsu",
        "state": "",
        "country": "JP",
        "coord": {
            "lon": 136.966675,
            "lat": 35.23333
        }
    },
    {
        "id": 1850004,
        "name": "Tonoshō",
        "state": "",
        "country": "JP",
        "coord": {
            "lon": 134.183334,
            "lat": 34.48333
        }
    },
    {
        "id": 1850034,
        "name": "Tondabayashichō",
        "state": "",
        "country": "JP",
        "coord": {
            "lon": 135.600006,
            "lat": 34.5
        }
    },
    {
        "id": 1850040,
        "name": "Tonami",
        "state": "",
        "country": "JP",
        "coord": {
            "lon": 137.727203,
            "lat": 37.001282
        }
    },
    {
        "id": 1850091,
        "name": "Tomioka",
        "state": "",
        "country": "JP",
        "coord": {
            "lon": 138.899994,
            "lat": 36.25
        }
    },
    {
        "id": 1850108,
        "name": "Tomigusuku",
        "state": "",
        "country": "JP",
        "coord": {
            "lon": 127.675003,
            "lat": 26.184999
        }
    },
    {
        "id": 1850144,
        "name": "Tokyo Prefecture",
        "state": "",
        "country": "JP",
        "coord": {
            "lon": 139.691711,
            "lat": 35.689499
        }
    },
    {
        "id": 1850147,
        "name": "Tokyo",
        "state": "",
        "country": "JP",
        "coord": {
            "lon": 139.691711,
            "lat": 35.689499
        }
    },
    {
        "id": 1850152,
        "name": "Tokuyama",
        "state": "",
        "country": "JP",
        "coord": {
            "lon": 131.816666,
            "lat": 34.049999
        }
    },
    {
        "id": 1850157,
        "name": "Tokushima-ken",
        "state": "",
        "country": "JP",
        "coord": {
            "lon": 134.236816,
            "lat": 33.921761
        }
    },
    {
        "id": 1850158,
        "name": "Tokushima",
        "state": "",
        "country": "JP",
        "coord": {
            "lon": 134.559433,
            "lat": 34.06583
        }
    },
    {
        "id": 1850177,
        "name": "Tokuda",
        "state": "",
        "country": "JP",
        "coord": {
            "lon": 136.583328,
            "lat": 35.23333
        }
    },
    {
        "id": 1850181,
        "name": "Tokorozawa",
        "state": "",
        "country": "JP",
        "coord": {
            "lon": 139.469025,
            "lat": 35.79916
        }
    },
    {
        "id": 1850185,
        "name": "Tokoname",
        "state": "",
        "country": "JP",
        "coord": {
            "lon": 136.850006,
            "lat": 34.883331
        }
    },
    {
        "id": 1850207,
        "name": "Toki",
        "state": "",
        "country": "JP",
        "coord": {
            "lon": 137.183334,
            "lat": 35.349998
        }
    },
    {
        "id": 1850213,
        "name": "Tokashiki",
        "state": "",
        "country": "JP",
        "coord": {
            "lon": 127.358612,
            "lat": 26.192499
        }
    },
    {
        "id": 1850217,
        "name": "Tōkamachi",
        "state": "",
        "country": "JP",
        "coord": {
            "lon": 138.766663,
            "lat": 37.133331
        }
    },
    {
        "id": 1850223,
        "name": "Tōkaichi",
        "state": "",
        "country": "JP",
        "coord": {
            "lon": 132.850006,
            "lat": 34.799999
        }
    },
    {
        "id": 1850233,
        "name": "Tōji",
        "state": "",
        "country": "JP",
        "coord": {
            "lon": 130.833328,
            "lat": 32.400002
        }
    },
    {
        "id": 1850269,
        "name": "Togitsu",
        "state": "",
        "country": "JP",
        "coord": {
            "lon": 129.850006,
            "lat": 32.833328
        }
    },
    {
        "id": 1850302,
        "name": "Todaka",
        "state": "",
        "country": "JP",
        "coord": {
            "lon": 131.366669,
            "lat": 31.6
        }
    },
    {
        "id": 1850307,
        "name": "Tochio-honchō",
        "state": "",
        "country": "JP",
        "coord": {
            "lon": 139.0,
            "lat": 37.466671
        }
    },
    {
        "id": 1850310,
        "name": "Tochigi",
        "state": "",
        "country": "JP",
        "coord": {
            "lon": 139.816132,
            "lat": 36.692589
        }
    },
    {
        "id": 1850311,
        "name": "Tochigi",
        "state": "",
        "country": "JP",
        "coord": {
            "lon": 139.733337,
            "lat": 36.383331
        }
    },
    {
        "id": 1850314,
        "name": "Tōbō",
        "state": "",
        "country": "JP",
        "coord": {
            "lon": 129.933334,
            "lat": 33.48333
        }
    },
    {
        "id": 1850345,
        "name": "Toba",
        "state": "",
        "country": "JP",
        "coord": {
            "lon": 136.850006,
            "lat": 34.48333
        }
    },
    {
        "id": 1850396,
        "name": "Tenri",
        "state": "",
        "country": "JP",
        "coord": {
            "lon": 135.833328,
            "lat": 34.583328
        }
    },
    {
        "id": 1850405,
        "name": "Tennō",
        "state": "",
        "country": "JP",
        "coord": {
            "lon": 139.966675,
            "lat": 39.900002
        }
    },
    {
        "id": 1850418,
        "name": "Tenjin",
        "state": "",
        "country": "JP",
        "coord": {
            "lon": 130.399994,
            "lat": 33.583328
        }
    },
    {
        "id": 1850420,
        "name": "Tenjimmae",
        "state": "",
        "country": "JP",
        "coord": {
            "lon": 134.050003,
            "lat": 34.333328
        }
    },
    {
        "id": 1850472,
        "name": "Tawaramoto",
        "state": "",
        "country": "JP",
        "coord": {
            "lon": 135.800003,
            "lat": 34.549999
        }
    },
    {
        "id": 1850498,
        "name": "Tatsuno",
        "state": "",
        "country": "JP",
        "coord": {
            "lon": 137.997208,
            "lat": 35.984261
        }
    },
    {
        "id": 1850499,
        "name": "Tatsunochō-tominaga",
        "state": "",
        "country": "JP",
        "coord": {
            "lon": 134.550003,
            "lat": 34.866669
        }
    },
    {
        "id": 1850523,
        "name": "Tateyama",
        "state": "",
        "country": "JP",
        "coord": {
            "lon": 139.866669,
            "lat": 34.98333
        }
    },
    {
        "id": 1850559,
        "name": "Tatebayashi",
        "state": "",
        "country": "JP",
        "coord": {
            "lon": 139.533325,
            "lat": 36.25
        }
    },
    {
        "id": 1850589,
        "name": "Tarumizu",
        "state": "",
        "country": "JP",
        "coord": {
            "lon": 130.699997,
            "lat": 31.48333
        }
    },
    {
        "id": 1850600,
        "name": "Tarui",
        "state": "",
        "country": "JP",
        "coord": {
            "lon": 136.533325,
            "lat": 35.366669
        }
    },
    {
        "id": 1850617,
        "name": "Taragi",
        "state": "",
        "country": "JP",
        "coord": {
            "lon": 130.933334,
            "lat": 32.26667
        }
    },
    {
        "id": 1850627,
        "name": "Tanushimarumachi-toyoki",
        "state": "",
        "country": "JP",
        "coord": {
            "lon": 130.683334,
            "lat": 33.349998
        }
    },
    {
        "id": 1850630,
        "name": "Tanuma",
        "state": "",
        "country": "JP",
        "coord": {
            "lon": 139.583328,
            "lat": 36.366669
        }
    },
    {
        "id": 1850692,
        "name": "Nishi-Tokyo-shi",
        "state": "",
        "country": "JP",
        "coord": {
            "lon": 139.5383,
            "lat": 35.725262
        }
    },
    {
        "id": 1850693,
        "name": "Tanashichō",
        "state": "",
        "country": "JP",
        "coord": {
            "lon": 139.522217,
            "lat": 35.723888
        }
    },
    {
        "id": 1850707,
        "name": "Tanabe",
        "state": "",
        "country": "JP",
        "coord": {
            "lon": 135.766663,
            "lat": 34.816669
        }
    },
    {
        "id": 1850708,
        "name": "Tanabe",
        "state": "",
        "country": "JP",
        "coord": {
            "lon": 135.366669,
            "lat": 33.73333
        }
    },
    {
        "id": 1850718,
        "name": "Tamba",
        "state": "",
        "country": "JP",
        "coord": {
            "lon": 135.066666,
            "lat": 35.633331
        }
    },
    {
        "id": 1850736,
        "name": "Tamarai",
        "state": "",
        "country": "JP",
        "coord": {
            "lon": 131.383331,
            "lat": 32.950001
        }
    },
    {
        "id": 1850742,
        "name": "Tamano",
        "state": "",
        "country": "JP",
        "coord": {
            "lon": 133.949997,
            "lat": 34.48333
        }
    },
    {
        "id": 1850745,
        "name": "Tamana",
        "state": "",
        "country": "JP",
        "coord": {
            "lon": 130.566666,
            "lat": 32.916672
        }
    },
    {
        "id": 1850746,
        "name": "Tamamura",
        "state": "",
        "country": "JP",
        "coord": {
            "lon": 139.116669,
            "lat": 36.299999
        }
    },
    {
        "id": 1850762,
        "name": "Tamagawa",
        "state": "",
        "country": "JP",
        "coord": {
            "lon": 139.666672,
            "lat": 38.033329
        }
    },
    {
        "id": 1850818,
        "name": "Taketoyo",
        "state": "",
        "country": "JP",
        "coord": {
            "lon": 136.916672,
            "lat": 34.849998
        }
    },
    {
        "id": 1850822,
        "name": "Taketomi",
        "state": "",
        "country": "JP",
        "coord": {
            "lon": 124.08506,
            "lat": 24.330669
        }
    },
    {
        "id": 1850834,
        "name": "Takeochō-takeo",
        "state": "",
        "country": "JP",
        "coord": {
            "lon": 130.016663,
            "lat": 33.200001
        }
    },
    {
        "id": 1850837,
        "name": "Takenouchi",
        "state": "",
        "country": "JP",
        "coord": {
            "lon": 137.300003,
            "lat": 36.700001
        }
    },
    {
        "id": 1850860,
        "name": "Takehara",
        "state": "",
        "country": "JP",
        "coord": {
            "lon": 132.916672,
            "lat": 34.338329
        }
    },
    {
        "id": 1850872,
        "name": "Takefu",
        "state": "",
        "country": "JP",
        "coord": {
            "lon": 136.16687,
            "lat": 35.903931
        }
    },
    {
        "id": 1850878,
        "name": "Takedamachi",
        "state": "",
        "country": "JP",
        "coord": {
            "lon": 131.399994,
            "lat": 32.966671
        }
    },
    {
        "id": 1850892,
        "name": "Takayama",
        "state": "",
        "country": "JP",
        "coord": {
            "lon": 137.25,
            "lat": 36.133331
        }
    },
    {
        "id": 1850910,
        "name": "Takatsuki",
        "state": "",
        "country": "JP",
        "coord": {
            "lon": 135.616776,
            "lat": 34.848331
        }
    },
    {
        "id": 1850916,
        "name": "Takatsu",
        "state": "",
        "country": "JP",
        "coord": {
            "lon": 131.783325,
            "lat": 34.683331
        }
    },
    {
        "id": 1850924,
        "name": "Takatorichō",
        "state": "",
        "country": "JP",
        "coord": {
            "lon": 135.133331,
            "lat": 34.650002
        }
    },
    {
        "id": 1850940,
        "name": "Takatachō",
        "state": "",
        "country": "JP",
        "coord": {
            "lon": 136.933334,
            "lat": 35.133331
        }
    },
    {
        "id": 1850943,
        "name": "Takata",
        "state": "",
        "country": "JP",
        "coord": {
            "lon": 136.233337,
            "lat": 35.433331
        }
    },
    {
        "id": 1851002,
        "name": "Takasaki",
        "state": "",
        "country": "JP",
        "coord": {
            "lon": 139.016663,
            "lat": 36.333328
        }
    },
    {
        "id": 1851009,
        "name": "Takasagochō-takasemachi",
        "state": "",
        "country": "JP",
        "coord": {
            "lon": 134.800003,
            "lat": 34.75
        }
    },
    {
        "id": 1851012,
        "name": "Takarazuka",
        "state": "",
        "country": "JP",
        "coord": {
            "lon": 135.356964,
            "lat": 34.799358
        }
    },
    {
        "id": 1851032,
        "name": "Takaoka",
        "state": "",
        "country": "JP",
        "coord": {
            "lon": 137.016663,
            "lat": 36.75
        }
    },
    {
        "id": 1851068,
        "name": "Takanabe",
        "state": "",
        "country": "JP",
        "coord": {
            "lon": 131.5,
            "lat": 32.133331
        }
    },
    {
        "id": 1851079,
        "name": "Takamori",
        "state": "",
        "country": "JP",
        "coord": {
            "lon": 131.116669,
            "lat": 32.816669
        }
    },
    {
        "id": 1851099,
        "name": "Takamatsu",
        "state": "",
        "country": "JP",
        "coord": {
            "lon": 136.716675,
            "lat": 36.76667
        }
    },
    {
        "id": 1851100,
        "name": "Takamatsu",
        "state": "",
        "country": "JP",
        "coord": {
            "lon": 134.043335,
            "lat": 34.340279
        }
    },
    {
        "id": 1851114,
        "name": "Takajōmachi",
        "state": "",
        "country": "JP",
        "coord": {
            "lon": 138.383331,
            "lat": 34.966671
        }
    },
    {
        "id": 1851125,
        "name": "Takaishi",
        "state": "",
        "country": "JP",
        "coord": {
            "lon": 135.433334,
            "lat": 34.51667
        }
    },
    {
        "id": 1851137,
        "name": "Takahashi",
        "state": "",
        "country": "JP",
        "coord": {
            "lon": 133.616669,
            "lat": 34.783329
        }
    },
    {
        "id": 1851141,
        "name": "Takaharu",
        "state": "",
        "country": "JP",
        "coord": {
            "lon": 131.016663,
            "lat": 31.91667
        }
    },
    {
        "id": 1851155,
        "name": "Takahama",
        "state": "",
        "country": "JP",
        "coord": {
            "lon": 136.983337,
            "lat": 34.916672
        }
    },
    {
        "id": 1851170,
        "name": "Bungo-Takada-shi",
        "state": "",
        "country": "JP",
        "coord": {
            "lon": 131.445053,
            "lat": 33.556702
        }
    },
    {
        "id": 1851193,
        "name": "Tajimi",
        "state": "",
        "country": "JP",
        "coord": {
            "lon": 137.133331,
            "lat": 35.316669
        }
    },
    {
        "id": 1851259,
        "name": "Tahara",
        "state": "",
        "country": "JP",
        "coord": {
            "lon": 137.266663,
            "lat": 34.666672
        }
    },
    {
        "id": 1851273,
        "name": "Tagawa",
        "state": "",
        "country": "JP",
        "coord": {
            "lon": 130.800003,
            "lat": 33.633331
        }
    },
    {
        "id": 1851279,
        "name": "Taga",
        "state": "",
        "country": "JP",
        "coord": {
            "lon": 136.286255,
            "lat": 35.226341
        }
    },
    {
        "id": 1851282,
        "name": "Tadotsu",
        "state": "",
        "country": "JP",
        "coord": {
            "lon": 133.75,
            "lat": 34.275002
        }
    },
    {
        "id": 1851292,
        "name": "Tadami",
        "state": "",
        "country": "JP",
        "coord": {
            "lon": 139.316666,
            "lat": 37.349998
        }
    },
    {
        "id": 1851307,
        "name": "Tachikawa",
        "state": "",
        "country": "JP",
        "coord": {
            "lon": 139.41806,
            "lat": 35.69278
        }
    },
    {
        "id": 1851319,
        "name": "Tachiarai",
        "state": "",
        "country": "JP",
        "coord": {
            "lon": 130.616669,
            "lat": 33.400002
        }
    },
    {
        "id": 1851323,
        "name": "Tabuse",
        "state": "",
        "country": "JP",
        "coord": {
            "lon": 132.066666,
            "lat": 33.950001
        }
    },
    {
        "id": 1851348,
        "name": "Suzuka",
        "state": "",
        "country": "JP",
        "coord": {
            "lon": 136.583328,
            "lat": 34.883331
        }
    },
    {
        "id": 1851357,
        "name": "Suzaka",
        "state": "",
        "country": "JP",
        "coord": {
            "lon": 138.316666,
            "lat": 36.650002
        }
    },
    {
        "id": 1851368,
        "name": "Suwa",
        "state": "",
        "country": "JP",
        "coord": {
            "lon": 138.113083,
            "lat": 36.037991
        }
    },
    {
        "id": 1851383,
        "name": "Susami",
        "state": "",
        "country": "JP",
        "coord": {
            "lon": 135.5,
            "lat": 33.549999
        }
    },
    {
        "id": 1851390,
        "name": "Susaki",
        "state": "",
        "country": "JP",
        "coord": {
            "lon": 133.283325,
            "lat": 33.366669
        }
    },
    {
        "id": 1851426,
        "name": "Sumoto",
        "state": "",
        "country": "JP",
        "coord": {
            "lon": 134.899994,
            "lat": 34.349998
        }
    },
    {
        "id": 1851462,
        "name": "Sukumo",
        "state": "",
        "country": "JP",
        "coord": {
            "lon": 132.733337,
            "lat": 32.933331
        }
    },
    {
        "id": 1851483,
        "name": "Suita",
        "state": "",
        "country": "JP",
        "coord": {
            "lon": 135.515671,
            "lat": 34.761429
        }
    },
    {
        "id": 1851494,
        "name": "Suibara",
        "state": "",
        "country": "JP",
        "coord": {
            "lon": 139.233337,
            "lat": 37.833328
        }
    },
    {
        "id": 1851497,
        "name": "Suguri",
        "state": "",
        "country": "JP",
        "coord": {
            "lon": 138.149994,
            "lat": 36.26667
        }
    },
    {
        "id": 1851504,
        "name": "Sugito",
        "state": "",
        "country": "JP",
        "coord": {
            "lon": 139.733337,
            "lat": 36.033329
        }
    },
    {
        "id": 1851542,
        "name": "Sueyoshichō-ninokata",
        "state": "",
        "country": "JP",
        "coord": {
            "lon": 131.016663,
            "lat": 31.65
        }
    },
    {
        "id": 1851597,
        "name": "Shimosomeda",
        "state": "",
        "country": "JP",
        "coord": {
            "lon": 130.983337,
            "lat": 32.283329
        }
    },
    {
        "id": 1851604,
        "name": "Sōka",
        "state": "",
        "country": "JP",
        "coord": {
            "lon": 139.804443,
            "lat": 35.820278
        }
    },
    {
        "id": 1851606,
        "name": "Sōja",
        "state": "",
        "country": "JP",
        "coord": {
            "lon": 133.75,
            "lat": 34.666672
        }
    },
    {
        "id": 1851617,
        "name": "Soeda",
        "state": "",
        "country": "JP",
        "coord": {
            "lon": 130.866669,
            "lat": 33.566669
        }
    },
    {
        "id": 1851622,
        "name": "Sobue",
        "state": "",
        "country": "JP",
        "coord": {
            "lon": 136.716675,
            "lat": 35.25
        }
    },
    {
        "id": 1851632,
        "name": "Shuzenji",
        "state": "",
        "country": "JP",
        "coord": {
            "lon": 138.933334,
            "lat": 34.966671
        }
    },
    {
        "id": 1851711,
        "name": "Shōbu",
        "state": "",
        "country": "JP",
        "coord": {
            "lon": 139.600006,
            "lat": 36.066669
        }
    },
    {
        "id": 1851713,
        "name": "Shōbara",
        "state": "",
        "country": "JP",
        "coord": {
            "lon": 133.016663,
            "lat": 34.849998
        }
    },
    {
        "id": 1851715,
        "name": "Shizuoka",
        "state": "",
        "country": "JP",
        "coord": {
            "lon": 138.325424,
            "lat": 35.025219
        }
    },
    {
        "id": 1851717,
        "name": "Shizuoka",
        "state": "",
        "country": "JP",
        "coord": {
            "lon": 138.383057,
            "lat": 34.97694
        }
    },
    {
        "id": 1851751,
        "name": "Shitara",
        "state": "",
        "country": "JP",
        "coord": {
            "lon": 137.566666,
            "lat": 35.099998
        }
    },
    {
        "id": 1851813,
        "name": "Shirone",
        "state": "",
        "country": "JP",
        "coord": {
            "lon": 139.016663,
            "lat": 37.76667
        }
    },
    {
        "id": 1851842,
        "name": "Shirayamamachi",
        "state": "",
        "country": "JP",
        "coord": {
            "lon": 136.633331,
            "lat": 36.433331
        }
    },
    {
        "id": 1851883,
        "name": "Shiraoka",
        "state": "",
        "country": "JP",
        "coord": {
            "lon": 139.666672,
            "lat": 36.01667
        }
    },
    {
        "id": 1851898,
        "name": "Shirako",
        "state": "",
        "country": "JP",
        "coord": {
            "lon": 139.633331,
            "lat": 35.76667
        }
    },
    {
        "id": 1851935,
        "name": "Shirahamachō-usazakiminami",
        "state": "",
        "country": "JP",
        "coord": {
            "lon": 134.716675,
            "lat": 34.783329
        }
    },
    {
        "id": 1851937,
        "name": "Shirahama",
        "state": "",
        "country": "JP",
        "coord": {
            "lon": 129.733337,
            "lat": 33.01667
        }
    },
    {
        "id": 1851951,
        "name": "Shiozawa",
        "state": "",
        "country": "JP",
        "coord": {
            "lon": 139.933334,
            "lat": 37.066669
        }
    },
    {
        "id": 1851952,
        "name": "Shiozawa",
        "state": "",
        "country": "JP",
        "coord": {
            "lon": 138.850006,
            "lat": 37.033329
        }
    },
    {
        "id": 1851992,
        "name": "Shiomidai",
        "state": "",
        "country": "JP",
        "coord": {
            "lon": 139.533325,
            "lat": 35.583328
        }
    },
    {
        "id": 1852003,
        "name": "Shiojiri",
        "state": "",
        "country": "JP",
        "coord": {
            "lon": 137.966675,
            "lat": 36.099998
        }
    },
    {
        "id": 1852025,
        "name": "Shiobaru",
        "state": "",
        "country": "JP",
        "coord": {
            "lon": 130.433334,
            "lat": 33.566669
        }
    },
    {
        "id": 1852038,
        "name": "Shintō",
        "state": "",
        "country": "JP",
        "coord": {
            "lon": 131.259277,
            "lat": 25.85195
        }
    },
    {
        "id": 1852046,
        "name": "Shinshiro",
        "state": "",
        "country": "JP",
        "coord": {
            "lon": 137.5,
            "lat": 34.900002
        }
    },
    {
        "id": 1852097,
        "name": "Shinjichō-shinji",
        "state": "",
        "country": "JP",
        "coord": {
            "lon": 132.899994,
            "lat": 35.400002
        }
    },
    {
        "id": 1852102,
        "name": "Shin’ichi",
        "state": "",
        "country": "JP",
        "coord": {
            "lon": 133.266663,
            "lat": 34.549999
        }
    },
    {
        "id": 1852109,
        "name": "Shingū",
        "state": "",
        "country": "JP",
        "coord": {
            "lon": 130.433334,
            "lat": 33.716671
        }
    },
    {
        "id": 1852140,
        "name": "Shinagawa-ku",
        "state": "",
        "country": "JP",
        "coord": {
            "lon": 139.730164,
            "lat": 35.60902
        }
    },
    {
        "id": 1852195,
        "name": "Shimoshirouzu",
        "state": "",
        "country": "JP",
        "coord": {
            "lon": 130.433334,
            "lat": 33.51667
        }
    },
    {
        "id": 1852201,
        "name": "Shimo-satsume",
        "state": "",
        "country": "JP",
        "coord": {
            "lon": 132.649994,
            "lat": 35.216671
        }
    },
    {
        "id": 1852225,
        "name": "Shimonoseki",
        "state": "",
        "country": "JP",
        "coord": {
            "lon": 130.949997,
            "lat": 33.950001
        }
    },
    {
        "id": 1852237,
        "name": "Shimonita",
        "state": "",
        "country": "JP",
        "coord": {
            "lon": 138.783325,
            "lat": 36.216671
        }
    },
    {
        "id": 1852272,
        "name": "Shimoku",
        "state": "",
        "country": "JP",
        "coord": {
            "lon": 135.600006,
            "lat": 35.099998
        }
    },
    {
        "id": 1852278,
        "name": "Shimokodanaka",
        "state": "",
        "country": "JP",
        "coord": {
            "lon": 139.633331,
            "lat": 35.566669
        }
    },
    {
        "id": 1852347,
        "name": "Shimodate",
        "state": "",
        "country": "JP",
        "coord": {
            "lon": 139.983337,
            "lat": 36.299999
        }
    },
    {
        "id": 1852357,
        "name": "Shimoda",
        "state": "",
        "country": "JP",
        "coord": {
            "lon": 138.949997,
            "lat": 34.666672
        }
    },
    {
        "id": 1852383,
        "name": "Minato",
        "state": "",
        "country": "JP",
        "coord": {
            "lon": 135.199997,
            "lat": 34.183331
        }
    },
    {
        "id": 1852385,
        "name": "Nishishinminato",
        "state": "",
        "country": "JP",
        "coord": {
            "lon": 137.066666,
            "lat": 36.783329
        }
    },
    {
        "id": 1852427,
        "name": "Shinbashichō",
        "state": "",
        "country": "JP",
        "coord": {
            "lon": 139.516663,
            "lat": 35.433331
        }
    },
    {
        "id": 1852442,
        "name": "Shimane-ken",
        "state": "",
        "country": "JP",
        "coord": {
            "lon": 132.561111,
            "lat": 35.076931
        }
    },
    {
        "id": 1852472,
        "name": "Shimada",
        "state": "",
        "country": "JP",
        "coord": {
            "lon": 138.183334,
            "lat": 34.816669
        }
    },
    {
        "id": 1852479,
        "name": "Shimabara",
        "state": "",
        "country": "JP",
        "coord": {
            "lon": 130.366669,
            "lat": 32.783329
        }
    },
    {
        "id": 1852502,
        "name": "Shiki",
        "state": "",
        "country": "JP",
        "coord": {
            "lon": 139.583328,
            "lat": 35.833328
        }
    },
    {
        "id": 1852524,
        "name": "Shijōdōri",
        "state": "",
        "country": "JP",
        "coord": {
            "lon": 135.763031,
            "lat": 35.00378
        }
    },
    {
        "id": 1852534,
        "name": "Shiida",
        "state": "",
        "country": "JP",
        "coord": {
            "lon": 131.057968,
            "lat": 33.653412
        }
    },
    {
        "id": 1852553,
        "name": "Shiga",
        "state": "",
        "country": "JP",
        "coord": {
            "lon": 136.13652,
            "lat": 35.219391
        }
    },
    {
        "id": 1852561,
        "name": "Shido",
        "state": "",
        "country": "JP",
        "coord": {
            "lon": 134.173325,
            "lat": 34.32333
        }
    },
    {
        "id": 1852579,
        "name": "Nanabari",
        "state": "",
        "country": "JP",
        "coord": {
            "lon": 125.308693,
            "lat": 24.783461
        }
    },
    {
        "id": 1852588,
        "name": "Shibushi",
        "state": "",
        "country": "JP",
        "coord": {
            "lon": 131.104996,
            "lat": 31.466669
        }
    },
    {
        "id": 1852595,
        "name": "Shibukawa",
        "state": "",
        "country": "JP",
        "coord": {
            "lon": 139.0,
            "lat": 36.48333
        }
    },
    {
        "id": 1852607,
        "name": "Shibata",
        "state": "",
        "country": "JP",
        "coord": {
            "lon": 139.333328,
            "lat": 37.950001
        }
    },
    {
        "id": 1852663,
        "name": "Seto",
        "state": "",
        "country": "JP",
        "coord": {
            "lon": 137.100006,
            "lat": 35.23333
        }
    },
    {
        "id": 1852673,
        "name": "Setakamachi-takayanagi",
        "state": "",
        "country": "JP",
        "coord": {
            "lon": 130.466675,
            "lat": 33.150002
        }
    },
    {
        "id": 1852676,
        "name": "Umegaoka",
        "state": "",
        "country": "JP",
        "coord": {
            "lon": 139.649994,
            "lat": 35.633331
        }
    },
    {
        "id": 1852679,
        "name": "Seta",
        "state": "",
        "country": "JP",
        "coord": {
            "lon": 135.916672,
            "lat": 34.966671
        }
    },
    {
        "id": 1852685,
        "name": "Kiire-sesekushichō",
        "state": "",
        "country": "JP",
        "coord": {
            "lon": 130.516663,
            "lat": 31.41667
        }
    },
    {
        "id": 1852699,
        "name": "Senzaki",
        "state": "",
        "country": "JP",
        "coord": {
            "lon": 131.199997,
            "lat": 34.383331
        }
    },
    {
        "id": 1852736,
        "name": "Satsumasendai",
        "state": "",
        "country": "JP",
        "coord": {
            "lon": 130.300003,
            "lat": 31.816669
        }
    },
    {
        "id": 1852748,
        "name": "Sembonyama",
        "state": "",
        "country": "JP",
        "coord": {
            "lon": 129.850006,
            "lat": 32.700001
        }
    },
    {
        "id": 1852775,
        "name": "Sekimachi",
        "state": "",
        "country": "JP",
        "coord": {
            "lon": 136.916672,
            "lat": 35.48333
        }
    },
    {
        "id": 1852788,
        "name": "Sekigahara",
        "state": "",
        "country": "JP",
        "coord": {
            "lon": 136.466675,
            "lat": 35.366669
        }
    },
    {
        "id": 1852795,
        "name": "Sekichō-furumaya",
        "state": "",
        "country": "JP",
        "coord": {
            "lon": 136.399994,
            "lat": 34.849998
        }
    },
    {
        "id": 1852831,
        "name": "Sayō",
        "state": "",
        "country": "JP",
        "coord": {
            "lon": 134.366669,
            "lat": 35.0
        }
    },
    {
        "id": 1852849,
        "name": "Satte",
        "state": "",
        "country": "JP",
        "coord": {
            "lon": 139.716675,
            "lat": 36.066669
        }
    },
    {
        "id": 1852899,
        "name": "Sasebo",
        "state": "",
        "country": "JP",
        "coord": {
            "lon": 129.722778,
            "lat": 33.159168
        }
    },
    {
        "id": 1852901,
        "name": "Sasayama",
        "state": "",
        "country": "JP",
        "coord": {
            "lon": 135.216675,
            "lat": 35.066669
        }
    },
    {
        "id": 1852915,
        "name": "Sasaguri",
        "state": "",
        "country": "JP",
        "coord": {
            "lon": 130.533325,
            "lat": 33.616669
        }
    },
    {
        "id": 1852964,
        "name": "Sano",
        "state": "",
        "country": "JP",
        "coord": {
            "lon": 139.583328,
            "lat": 36.316669
        }
    },
    {
        "id": 1852984,
        "name": "Sanjō",
        "state": "",
        "country": "JP",
        "coord": {
            "lon": 138.949997,
            "lat": 37.616669
        }
    },
    {
        "id": 1853008,
        "name": "Sandachō",
        "state": "",
        "country": "JP",
        "coord": {
            "lon": 135.233337,
            "lat": 34.883331
        }
    },
    {
        "id": 1853024,
        "name": "Sanmyō",
        "state": "",
        "country": "JP",
        "coord": {
            "lon": 131.350006,
            "lat": 32.0
        }
    },
    {
        "id": 1853045,
        "name": "Sanbashidōri",
        "state": "",
        "country": "JP",
        "coord": {
            "lon": 133.550003,
            "lat": 33.549999
        }
    },
    {
        "id": 1853058,
        "name": "Sakurakabu",
        "state": "",
        "country": "JP",
        "coord": {
            "lon": 139.466675,
            "lat": 35.450001
        }
    },
    {
        "id": 1853066,
        "name": "Sakurai",
        "state": "",
        "country": "JP",
        "coord": {
            "lon": 135.850006,
            "lat": 34.5
        }
    },
    {
        "id": 1853071,
        "name": "Sakurachō",
        "state": "",
        "country": "JP",
        "coord": {
            "lon": 139.466675,
            "lat": 36.150002
        }
    },
    {
        "id": 1853072,
        "name": "Sakurabashidōri",
        "state": "",
        "country": "JP",
        "coord": {
            "lon": 137.216675,
            "lat": 36.700001
        }
    },
    {
        "id": 1853081,
        "name": "Saku",
        "state": "",
        "country": "JP",
        "coord": {
            "lon": 138.483337,
            "lat": 36.216671
        }
    },
    {
        "id": 1853140,
        "name": "Sakata",
        "state": "",
        "country": "JP",
        "coord": {
            "lon": 139.854996,
            "lat": 38.916672
        }
    },
    {
        "id": 1853150,
        "name": "Ichinomiyamachi-sakanashi",
        "state": "",
        "country": "JP",
        "coord": {
            "lon": 131.133331,
            "lat": 32.933331
        }
    },
    {
        "id": 1853163,
        "name": "Sakaki",
        "state": "",
        "country": "JP",
        "coord": {
            "lon": 138.183334,
            "lat": 36.466671
        }
    },
    {
        "id": 1853174,
        "name": "Sakaiminato",
        "state": "",
        "country": "JP",
        "coord": {
            "lon": 133.233337,
            "lat": 35.549999
        }
    },
    {
        "id": 1853188,
        "name": "Sakaidechō",
        "state": "",
        "country": "JP",
        "coord": {
            "lon": 133.850006,
            "lat": 34.316669
        }
    },
    {
        "id": 1853190,
        "name": "Sakaidechō",
        "state": "",
        "country": "JP",
        "coord": {
            "lon": 133.850006,
            "lat": 34.316669
        }
    },
    {
        "id": 1853192,
        "name": "Sakai-nakajima",
        "state": "",
        "country": "JP",
        "coord": {
            "lon": 139.25,
            "lat": 36.26667
        }
    },
    {
        "id": 1853193,
        "name": "Sakai",
        "state": "",
        "country": "JP",
        "coord": {
            "lon": 139.800003,
            "lat": 36.099998
        }
    },
    {
        "id": 1853195,
        "name": "Sakai",
        "state": "",
        "country": "JP",
        "coord": {
            "lon": 135.466675,
            "lat": 34.583328
        }
    },
    {
        "id": 1853202,
        "name": "Sakaguchi",
        "state": "",
        "country": "JP",
        "coord": {
            "lon": 139.033325,
            "lat": 35.950001
        }
    },
    {
        "id": 1853209,
        "name": "Sakado",
        "state": "",
        "country": "JP",
        "coord": {
            "lon": 139.388885,
            "lat": 35.95694
        }
    },
    {
        "id": 1853226,
        "name": "Saitama-ken",
        "state": "",
        "country": "JP",
        "coord": {
            "lon": 139.649033,
            "lat": 35.857208
        }
    },
    {
        "id": 1853237,
        "name": "Saiki",
        "state": "",
        "country": "JP",
        "coord": {
            "lon": 131.899994,
            "lat": 32.950001
        }
    },
    {
        "id": 1853280,
        "name": "Sagara",
        "state": "",
        "country": "JP",
        "coord": {
            "lon": 138.199997,
            "lat": 34.683331
        }
    },
    {
        "id": 1853295,
        "name": "Sagamihara",
        "state": "",
        "country": "JP",
        "coord": {
            "lon": 139.354446,
            "lat": 35.553059
        }
    },
    {
        "id": 1853299,
        "name": "Saga-ken",
        "state": "",
        "country": "JP",
        "coord": {
            "lon": 130.114914,
            "lat": 33.28904
        }
    },
    {
        "id": 1853303,
        "name": "Saga",
        "state": "",
        "country": "JP",
        "coord": {
            "lon": 130.298798,
            "lat": 33.249321
        }
    },
    {
        "id": 1853338,
        "name": "Sabae",
        "state": "",
        "country": "JP",
        "coord": {
            "lon": 136.184982,
            "lat": 35.946468
        }
    },
    {
        "id": 1853354,
        "name": "Ryūō",
        "state": "",
        "country": "JP",
        "coord": {
            "lon": 138.5,
            "lat": 35.650002
        }
    },
    {
        "id": 1853371,
        "name": "Ryōtsu-minato",
        "state": "",
        "country": "JP",
        "coord": {
            "lon": 138.433334,
            "lat": 38.083328
        }
    },
    {
        "id": 1853394,
        "name": "Ronji",
        "state": "",
        "country": "JP",
        "coord": {
            "lon": 130.716675,
            "lat": 31.783331
        }
    },
    {
        "id": 1853398,
        "name": "Rokujizō",
        "state": "",
        "country": "JP",
        "coord": {
            "lon": 135.800003,
            "lat": 34.933331
        }
    },
    {
        "id": 1853412,
        "name": "Renjakuchō",
        "state": "",
        "country": "JP",
        "coord": {
            "lon": 139.066666,
            "lat": 36.383331
        }
    },
    {
        "id": 1853433,
        "name": "Ōzu",
        "state": "",
        "country": "JP",
        "coord": {
            "lon": 130.866669,
            "lat": 32.866669
        }
    },
    {
        "id": 1853483,
        "name": "Oyama",
        "state": "",
        "country": "JP",
        "coord": {
            "lon": 139.800003,
            "lat": 36.299999
        }
    },
    {
        "id": 1853486,
        "name": "Ōyama",
        "state": "",
        "country": "JP",
        "coord": {
            "lon": 138.216675,
            "lat": 34.599998
        }
    },
    {
        "id": 1853514,
        "name": "Owase",
        "state": "",
        "country": "JP",
        "coord": {
            "lon": 136.199997,
            "lat": 34.066669
        }
    },
    {
        "id": 1853564,
        "name": "Ōtsuki",
        "state": "",
        "country": "JP",
        "coord": {
            "lon": 138.933334,
            "lat": 35.599998
        }
    },
    {
        "id": 1853574,
        "name": "Ōtsu",
        "state": "",
        "country": "JP",
        "coord": {
            "lon": 135.868332,
            "lat": 35.00444
        }
    },
    {
        "id": 1853620,
        "name": "Ohtemachi",
        "state": "",
        "country": "JP",
        "coord": {
            "lon": 136.220169,
            "lat": 36.067348
        }
    },
    {
        "id": 1853662,
        "name": "Ōtake",
        "state": "",
        "country": "JP",
        "coord": {
            "lon": 132.216675,
            "lat": 34.200001
        }
    },
    {
        "id": 1853677,
        "name": "Ōta",
        "state": "",
        "country": "JP",
        "coord": {
            "lon": 139.366669,
            "lat": 36.299999
        }
    },
    {
        "id": 1853807,
        "name": "Oshi",
        "state": "",
        "country": "JP",
        "coord": {
            "lon": 139.449997,
            "lat": 36.133331
        }
    },
    {
        "id": 1853904,
        "name": "Ōsaka-fu",
        "state": "",
        "country": "JP",
        "coord": {
            "lon": 135.519684,
            "lat": 34.68631
        }
    },
    {
        "id": 1853908,
        "name": "Osaka",
        "state": "",
        "country": "JP",
        "coord": {
            "lon": 137.266663,
            "lat": 35.950001
        }
    },
    {
        "id": 1853909,
        "name": "Osaka",
        "state": "",
        "country": "JP",
        "coord": {
            "lon": 135.502182,
            "lat": 34.693741
        }
    },
    {
        "id": 1853992,
        "name": "Onomichi",
        "state": "",
        "country": "JP",
        "coord": {
            "lon": 133.199997,
            "lat": 34.416672
        }
    },
    {
        "id": 1854018,
        "name": "Onoda",
        "state": "",
        "country": "JP",
        "coord": {
            "lon": 131.183609,
            "lat": 34.001389
        }
    },
    {
        "id": 1854022,
        "name": "Ono",
        "state": "",
        "country": "JP",
        "coord": {
            "lon": 136.487274,
            "lat": 35.98106
        }
    },
    {
        "id": 1854026,
        "name": "Ono",
        "state": "",
        "country": "JP",
        "coord": {
            "lon": 134.933334,
            "lat": 34.849998
        }
    },
    {
        "id": 1854028,
        "name": "Ōno-hara",
        "state": "",
        "country": "JP",
        "coord": {
            "lon": 132.266663,
            "lat": 34.283329
        }
    },
    {
        "id": 1854029,
        "name": "Ono",
        "state": "",
        "country": "JP",
        "coord": {
            "lon": 134.366669,
            "lat": 33.98333
        }
    },
    {
        "id": 1854037,
        "name": "Onna",
        "state": "",
        "country": "JP",
        "coord": {
            "lon": 127.85083,
            "lat": 26.492781
        }
    },
    {
        "id": 1854083,
        "name": "Ōmuta",
        "state": "",
        "country": "JP",
        "coord": {
            "lon": 130.449997,
            "lat": 33.033329
        }
    },
    {
        "id": 1854093,
        "name": "Ōmura",
        "state": "",
        "country": "JP",
        "coord": {
            "lon": 129.953888,
            "lat": 32.921391
        }
    },
    {
        "id": 1854128,
        "name": "Ōmiyachō",
        "state": "",
        "country": "JP",
        "coord": {
            "lon": 138.616669,
            "lat": 35.216671
        }
    },
    {
        "id": 1854156,
        "name": "Omi",
        "state": "",
        "country": "JP",
        "coord": {
            "lon": 137.383331,
            "lat": 36.566669
        }
    },
    {
        "id": 1854162,
        "name": "Ōme",
        "state": "",
        "country": "JP",
        "coord": {
            "lon": 139.243057,
            "lat": 35.78389
        }
    },
    {
        "id": 1854177,
        "name": "Ōmamachō-ōmama",
        "state": "",
        "country": "JP",
        "coord": {
            "lon": 139.283325,
            "lat": 36.433331
        }
    },
    {
        "id": 1854186,
        "name": "Ōmachi",
        "state": "",
        "country": "JP",
        "coord": {
            "lon": 137.866669,
            "lat": 36.5
        }
    },
    {
        "id": 1854246,
        "name": "Ōkuchi-shinohara",
        "state": "",
        "country": "JP",
        "coord": {
            "lon": 130.616669,
            "lat": 32.066669
        }
    },
    {
        "id": 1854255,
        "name": "Ōkubo-naka",
        "state": "",
        "country": "JP",
        "coord": {
            "lon": 135.350006,
            "lat": 34.400002
        }
    },
    {
        "id": 1854345,
        "name": "Okinawa",
        "state": "",
        "country": "JP",
        "coord": {
            "lon": 126.668709,
            "lat": 25.772249
        }
    },
    {
        "id": 1854371,
        "name": "Okegawa",
        "state": "",
        "country": "JP",
        "coord": {
            "lon": 139.55722,
            "lat": 36.0
        }
    },
    {
        "id": 1854372,
        "name": "Ōkagō",
        "state": "",
        "country": "JP",
        "coord": {
            "lon": 139.783325,
            "lat": 33.099998
        }
    },
    {
        "id": 1854376,
        "name": "Okazaki",
        "state": "",
        "country": "JP",
        "coord": {
            "lon": 137.166672,
            "lat": 34.950001
        }
    },
    {
        "id": 1854381,
        "name": "Okayama-ken",
        "state": "",
        "country": "JP",
        "coord": {
            "lon": 133.810181,
            "lat": 34.902039
        }
    },
    {
        "id": 1854383,
        "name": "Okayama",
        "state": "",
        "country": "JP",
        "coord": {
            "lon": 133.934998,
            "lat": 34.661671
        }
    },
    {
        "id": 1854384,
        "name": "Okaya",
        "state": "",
        "country": "JP",
        "coord": {
            "lon": 138.045105,
            "lat": 36.056591
        }
    },
    {
        "id": 1854405,
        "name": "Ōkawa",
        "state": "",
        "country": "JP",
        "coord": {
            "lon": 130.350006,
            "lat": 33.200001
        }
    },
    {
        "id": 1854431,
        "name": "Okata",
        "state": "",
        "country": "JP",
        "coord": {
            "lon": 139.383331,
            "lat": 34.783329
        }
    },
    {
        "id": 1854444,
        "name": "Ojiya",
        "state": "",
        "country": "JP",
        "coord": {
            "lon": 138.800003,
            "lat": 37.299999
        }
    },
    {
        "id": 1854461,
        "name": "Shinochō-ōji",
        "state": "",
        "country": "JP",
        "coord": {
            "lon": 135.616669,
            "lat": 34.98333
        }
    },
    {
        "id": 1854484,
        "name": "Oita Prefecture",
        "state": "",
        "country": "JP",
        "coord": {
            "lon": 131.433533,
            "lat": 33.19899
        }
    },
    {
        "id": 1854487,
        "name": "Ōita",
        "state": "",
        "country": "JP",
        "coord": {
            "lon": 131.612503,
            "lat": 33.23806
        }
    },
    {
        "id": 1854492,
        "name": "Ōiso",
        "state": "",
        "country": "JP",
        "coord": {
            "lon": 139.30278,
            "lat": 35.303059
        }
    },
    {
        "id": 1854530,
        "name": "Ōi",
        "state": "",
        "country": "JP",
        "coord": {
            "lon": 139.516663,
            "lat": 35.851109
        }
    },
    {
        "id": 1854579,
        "name": "Ohama",
        "state": "",
        "country": "JP",
        "coord": {
            "lon": 136.833328,
            "lat": 34.5
        }
    },
    {
        "id": 1854585,
        "name": "Hama",
        "state": "",
        "country": "JP",
        "coord": {
            "lon": 128.816666,
            "lat": 32.650002
        }
    },
    {
        "id": 1854588,
        "name": "Ōhama",
        "state": "",
        "country": "JP",
        "coord": {
            "lon": 124.19706,
            "lat": 24.344481
        }
    },
    {
        "id": 1854611,
        "name": "Ogunimachi",
        "state": "",
        "country": "JP",
        "coord": {
            "lon": 139.75,
            "lat": 38.066669
        }
    },
    {
        "id": 1854626,
        "name": "Ogose",
        "state": "",
        "country": "JP",
        "coord": {
            "lon": 139.289993,
            "lat": 35.958889
        }
    },
    {
        "id": 1854629,
        "name": "Ogōri-shimogō",
        "state": "",
        "country": "JP",
        "coord": {
            "lon": 131.399994,
            "lat": 34.099998
        }
    },
    {
        "id": 1854642,
        "name": "Ōgimachiya",
        "state": "",
        "country": "JP",
        "coord": {
            "lon": 139.399994,
            "lat": 35.833328
        }
    },
    {
        "id": 1854656,
        "name": "Ogimachi",
        "state": "",
        "country": "JP",
        "coord": {
            "lon": 130.201111,
            "lat": 33.287781
        }
    },
    {
        "id": 1854665,
        "name": "Ogawa",
        "state": "",
        "country": "JP",
        "coord": {
            "lon": 139.266663,
            "lat": 36.049999
        }
    },
    {
        "id": 1854691,
        "name": "Ogano",
        "state": "",
        "country": "JP",
        "coord": {
            "lon": 139.0,
            "lat": 36.01667
        }
    },
    {
        "id": 1854703,
        "name": "Ōgaki",
        "state": "",
        "country": "JP",
        "coord": {
            "lon": 136.616669,
            "lat": 35.349998
        }
    },
    {
        "id": 1854712,
        "name": "Mitsushimachō-ōfunakoshi",
        "state": "",
        "country": "JP",
        "coord": {
            "lon": 129.354721,
            "lat": 34.273331
        }
    },
    {
        "id": 1854742,
        "name": "Ōtera",
        "state": "",
        "country": "JP",
        "coord": {
            "lon": 139.983337,
            "lat": 37.549999
        }
    },
    {
        "id": 1854747,
        "name": "Odawara",
        "state": "",
        "country": "JP",
        "coord": {
            "lon": 139.159714,
            "lat": 35.255562
        }
    },
    {
        "id": 1854762,
        "name": "Ōdaka",
        "state": "",
        "country": "JP",
        "coord": {
            "lon": 136.933334,
            "lat": 35.066669
        }
    },
    {
        "id": 1854774,
        "name": "Ōdachō-ōda",
        "state": "",
        "country": "JP",
        "coord": {
            "lon": 132.5,
            "lat": 35.183331
        }
    },
    {
        "id": 1854788,
        "name": "Ochiai",
        "state": "",
        "country": "JP",
        "coord": {
            "lon": 138.833328,
            "lat": 35.799999
        }
    },
    {
        "id": 1854798,
        "name": "Obuse",
        "state": "",
        "country": "JP",
        "coord": {
            "lon": 138.316666,
            "lat": 36.700001
        }
    },
    {
        "id": 1854803,
        "name": "Ōbu",
        "state": "",
        "country": "JP",
        "coord": {
            "lon": 136.966675,
            "lat": 35.0
        }
    },
    {
        "id": 1854807,
        "name": "Obita",
        "state": "",
        "country": "JP",
        "coord": {
            "lon": 129.883331,
            "lat": 32.816669
        }
    },
    {
        "id": 1854849,
        "name": "Obama",
        "state": "",
        "country": "JP",
        "coord": {
            "lon": 135.746033,
            "lat": 35.495762
        }
    },
    {
        "id": 1854868,
        "name": "Nyūzen",
        "state": "",
        "country": "JP",
        "coord": {
            "lon": 137.5,
            "lat": 36.933331
        }
    },
    {
        "id": 1854902,
        "name": "Numazu",
        "state": "",
        "country": "JP",
        "coord": {
            "lon": 138.866669,
            "lat": 35.099998
        }
    },
    {
        "id": 1854905,
        "name": "Numata",
        "state": "",
        "country": "JP",
        "coord": {
            "lon": 139.050003,
            "lat": 36.633331
        }
    },
    {
        "id": 1854964,
        "name": "Nosato",
        "state": "",
        "country": "JP",
        "coord": {
            "lon": 127.76667,
            "lat": 26.35
        }
    },
    {
        "id": 1854979,
        "name": "Nonoichi",
        "state": "",
        "country": "JP",
        "coord": {
            "lon": 136.616669,
            "lat": 36.533329
        }
    },
    {
        "id": 1855066,
        "name": "Nōgata",
        "state": "",
        "country": "JP",
        "coord": {
            "lon": 130.733337,
            "lat": 33.73333
        }
    },
    {
        "id": 1855078,
        "name": "Noda",
        "state": "",
        "country": "JP",
        "coord": {
            "lon": 139.858063,
            "lat": 35.941109
        }
    },
    {
        "id": 1855095,
        "name": "Nobeoka",
        "state": "",
        "country": "JP",
        "coord": {
            "lon": 131.666672,
            "lat": 32.583328
        }
    },
    {
        "id": 1855114,
        "name": "Nishizu",
        "state": "",
        "country": "JP",
        "coord": {
            "lon": 135.752304,
            "lat": 35.516472
        }
    },
    {
        "id": 1855134,
        "name": "Nishiwaki",
        "state": "",
        "country": "JP",
        "coord": {
            "lon": 134.966675,
            "lat": 34.98333
        }
    },
    {
        "id": 1855189,
        "name": "Nishio",
        "state": "",
        "country": "JP",
        "coord": {
            "lon": 137.050003,
            "lat": 34.866669
        }
    },
    {
        "id": 1855203,
        "name": "Nishinoomote",
        "state": "",
        "country": "JP",
        "coord": {
            "lon": 131.0,
            "lat": 30.73333
        }
    },
    {
        "id": 1855207,
        "name": "Nishinomiya-hama",
        "state": "",
        "country": "JP",
        "coord": {
            "lon": 135.333328,
            "lat": 34.716671
        }
    },
    {
        "id": 1855265,
        "name": "Nishikichō",
        "state": "",
        "country": "JP",
        "coord": {
            "lon": 138.566666,
            "lat": 35.650002
        }
    },
    {
        "id": 1855301,
        "name": "Nishi-hanawa",
        "state": "",
        "country": "JP",
        "coord": {
            "lon": 138.533325,
            "lat": 35.583328
        }
    },
    {
        "id": 1855309,
        "name": "Nishigochō",
        "state": "",
        "country": "JP",
        "coord": {
            "lon": 138.183334,
            "lat": 36.650002
        }
    },
    {
        "id": 1855342,
        "name": "Nishihara",
        "state": "",
        "country": "JP",
        "coord": {
            "lon": 127.755829,
            "lat": 26.18417
        }
    },
    {
        "id": 1855357,
        "name": "Nishi",
        "state": "",
        "country": "JP",
        "coord": {
            "lon": 127.23333,
            "lat": 26.58333
        }
    },
    {
        "id": 1855363,
        "name": "Nirasaki",
        "state": "",
        "country": "JP",
        "coord": {
            "lon": 138.449997,
            "lat": 35.700001
        }
    },
    {
        "id": 1855380,
        "name": "Ninomiya",
        "state": "",
        "country": "JP",
        "coord": {
            "lon": 139.253326,
            "lat": 35.303329
        }
    },
    {
        "id": 1855395,
        "name": "Nikkō",
        "state": "",
        "country": "JP",
        "coord": {
            "lon": 139.616669,
            "lat": 36.75
        }
    },
    {
        "id": 1855410,
        "name": "Niitsu-honchō",
        "state": "",
        "country": "JP",
        "coord": {
            "lon": 139.116669,
            "lat": 37.799999
        }
    },
    {
        "id": 1855416,
        "name": "Niimi",
        "state": "",
        "country": "JP",
        "coord": {
            "lon": 133.466675,
            "lat": 34.98333
        }
    },
    {
        "id": 1855425,
        "name": "Niihama",
        "state": "",
        "country": "JP",
        "coord": {
            "lon": 133.316727,
            "lat": 33.959332
        }
    },
    {
        "id": 1855429,
        "name": "Niigata-ken",
        "state": "",
        "country": "JP",
        "coord": {
            "lon": 138.91748,
            "lat": 37.52343
        }
    },
    {
        "id": 1855431,
        "name": "Niigata",
        "state": "",
        "country": "JP",
        "coord": {
            "lon": 139.023605,
            "lat": 37.902222
        }
    },
    {
        "id": 1855444,
        "name": "Nihon’ōdōri",
        "state": "",
        "country": "JP",
        "coord": {
            "lon": 139.649994,
            "lat": 35.450001
        }
    },
    {
        "id": 1855476,
        "name": "Nichinan",
        "state": "",
        "country": "JP",
        "coord": {
            "lon": 131.366669,
            "lat": 31.6
        }
    },
    {
        "id": 1855503,
        "name": "Nerima",
        "state": "",
        "country": "JP",
        "coord": {
            "lon": 139.649994,
            "lat": 35.73333
        }
    },
    {
        "id": 1855512,
        "name": "Nemoto",
        "state": "",
        "country": "JP",
        "coord": {
            "lon": 139.833328,
            "lat": 34.900002
        }
    },
    {
        "id": 1855540,
        "name": "Naze",
        "state": "",
        "country": "JP",
        "coord": {
            "lon": 129.483337,
            "lat": 28.366671
        }
    },
    {
        "id": 1855566,
        "name": "Nasuzukuri",
        "state": "",
        "country": "JP",
        "coord": {
            "lon": 135.666672,
            "lat": 34.783329
        }
    },
    {
        "id": 1855580,
        "name": "Narutochō-mitsuishi",
        "state": "",
        "country": "JP",
        "coord": {
            "lon": 134.616669,
            "lat": 34.183331
        }
    },
    {
        "id": 1855585,
        "name": "Narusawa",
        "state": "",
        "country": "JP",
        "coord": {
            "lon": 138.733337,
            "lat": 35.75
        }
    },
    {
        "id": 1855608,
        "name": "Nara-ken",
        "state": "",
        "country": "JP",
        "coord": {
            "lon": 135.832886,
            "lat": 34.685249
        }
    },
    {
        "id": 1855612,
        "name": "Nara-shi",
        "state": "",
        "country": "JP",
        "coord": {
            "lon": 135.804855,
            "lat": 34.685051
        }
    },
    {
        "id": 1855623,
        "name": "Nanukaichi",
        "state": "",
        "country": "JP",
        "coord": {
            "lon": 133.466675,
            "lat": 34.599998
        }
    },
    {
        "id": 1855670,
        "name": "Nanao",
        "state": "",
        "country": "JP",
        "coord": {
            "lon": 136.966675,
            "lat": 37.049999
        }
    },
    {
        "id": 1855694,
        "name": "Namerikawa",
        "state": "",
        "country": "JP",
        "coord": {
            "lon": 137.333328,
            "lat": 36.76667
        }
    },
    {
        "id": 1855713,
        "name": "Nakijin",
        "state": "",
        "country": "JP",
        "coord": {
            "lon": 127.971672,
            "lat": 26.675831
        }
    },
    {
        "id": 1855730,
        "name": "Nakayama",
        "state": "",
        "country": "JP",
        "coord": {
            "lon": 139.949997,
            "lat": 35.716671
        }
    },
    {
        "id": 1855753,
        "name": "Nakatsugawa",
        "state": "",
        "country": "JP",
        "coord": {
            "lon": 137.5,
            "lat": 35.48333
        }
    },
    {
        "id": 1855756,
        "name": "Nakatsu",
        "state": "",
        "country": "JP",
        "coord": {
            "lon": 137.716675,
            "lat": 34.799999
        }
    },
    {
        "id": 1855757,
        "name": "Nakatsu",
        "state": "",
        "country": "JP",
        "coord": {
            "lon": 131.188293,
            "lat": 33.59811
        }
    },
    {
        "id": 1855847,
        "name": "Nakano",
        "state": "",
        "country": "JP",
        "coord": {
            "lon": 131.310883,
            "lat": 25.94562
        }
    },
    {
        "id": 1855852,
        "name": "Nakanojōmachi",
        "state": "",
        "country": "JP",
        "coord": {
            "lon": 138.850006,
            "lat": 36.583328
        }
    },
    {
        "id": 1855863,
        "name": "Nakano",
        "state": "",
        "country": "JP",
        "coord": {
            "lon": 138.366669,
            "lat": 36.75
        }
    },
    {
        "id": 1855882,
        "name": "Nakamura",
        "state": "",
        "country": "JP",
        "coord": {
            "lon": 137.916672,
            "lat": 36.150002
        }
    },
    {
        "id": 1855891,
        "name": "Nakamura",
        "state": "",
        "country": "JP",
        "coord": {
            "lon": 132.933334,
            "lat": 32.98333
        }
    },
    {
        "id": 1855907,
        "name": "Nakama",
        "state": "",
        "country": "JP",
        "coord": {
            "lon": 130.699997,
            "lat": 33.816669
        }
    },
    {
        "id": 1855933,
        "name": "Nakajima",
        "state": "",
        "country": "JP",
        "coord": {
            "lon": 137.216675,
            "lat": 36.716671
        }
    },
    {
        "id": 1855939,
        "name": "Nakaizumi",
        "state": "",
        "country": "JP",
        "coord": {
            "lon": 137.850006,
            "lat": 34.700001
        }
    },
    {
        "id": 1855944,
        "name": "Nakaichi",
        "state": "",
        "country": "JP",
        "coord": {
            "lon": 131.483337,
            "lat": 34.166672
        }
    },
    {
        "id": 1855947,
        "name": "Yamazakichō-nakai",
        "state": "",
        "country": "JP",
        "coord": {
            "lon": 134.533325,
            "lat": 34.98333
        }
    },
    {
        "id": 1855973,
        "name": "Naka-gōchi",
        "state": "",
        "country": "JP",
        "coord": {
            "lon": 131.333328,
            "lat": 34.01667
        }
    },
    {
        "id": 1855987,
        "name": "Nakagawa",
        "state": "",
        "country": "JP",
        "coord": {
            "lon": 137.033325,
            "lat": 35.066669
        }
    },
    {
        "id": 1856033,
        "name": "Nahari",
        "state": "",
        "country": "JP",
        "coord": {
            "lon": 134.016663,
            "lat": 33.416672
        }
    },
    {
        "id": 1856035,
        "name": "Naha",
        "state": "",
        "country": "JP",
        "coord": {
            "lon": 127.681107,
            "lat": 26.2125
        }
    },
    {
        "id": 1856057,
        "name": "Nagoya",
        "state": "",
        "country": "JP",
        "coord": {
            "lon": 136.906403,
            "lat": 35.181469
        }
    },
    {
        "id": 1856068,
        "name": "Nago",
        "state": "",
        "country": "JP",
        "coord": {
            "lon": 127.976112,
            "lat": 26.58806
        }
    },
    {
        "id": 1856156,
        "name": "Nagasaki Prefecture",
        "state": "",
        "country": "JP",
        "coord": {
            "lon": 129.611084,
            "lat": 33.23344
        }
    },
    {
        "id": 1856177,
        "name": "Nagasaki",
        "state": "",
        "country": "JP",
        "coord": {
            "lon": 129.873611,
            "lat": 32.74472
        }
    },
    {
        "id": 1856184,
        "name": "Nagareyama",
        "state": "",
        "country": "JP",
        "coord": {
            "lon": 139.902664,
            "lat": 35.8563
        }
    },
    {
        "id": 1856199,
        "name": "Nagaoka",
        "state": "",
        "country": "JP",
        "coord": {
            "lon": 138.850006,
            "lat": 37.450001
        }
    },
    {
        "id": 1856207,
        "name": "Nagao",
        "state": "",
        "country": "JP",
        "coord": {
            "lon": 134.166672,
            "lat": 34.26667
        }
    },
    {
        "id": 1856210,
        "name": "Nagano-ken",
        "state": "",
        "country": "JP",
        "coord": {
            "lon": 138.040771,
            "lat": 36.13464
        }
    },
    {
        "id": 1856212,
        "name": "Naganohara",
        "state": "",
        "country": "JP",
        "coord": {
            "lon": 138.633331,
            "lat": 36.549999
        }
    },
    {
        "id": 1856215,
        "name": "Nagano",
        "state": "",
        "country": "JP",
        "coord": {
            "lon": 138.181107,
            "lat": 36.65139
        }
    },
    {
        "id": 1856239,
        "name": "Nagahamamachi",
        "state": "",
        "country": "JP",
        "coord": {
            "lon": 131.616669,
            "lat": 33.23333
        }
    },
    {
        "id": 1856243,
        "name": "Nagahama",
        "state": "",
        "country": "JP",
        "coord": {
            "lon": 136.266663,
            "lat": 35.383331
        }
    },
    {
        "id": 1856293,
        "name": "Nabari",
        "state": "",
        "country": "JP",
        "coord": {
            "lon": 136.083328,
            "lat": 34.616669
        }
    },
    {
        "id": 1856300,
        "name": "Myōrakujichō",
        "state": "",
        "country": "JP",
        "coord": {
            "lon": 134.916672,
            "lat": 34.966671
        }
    },
    {
        "id": 1856367,
        "name": "Musashino",
        "state": "",
        "country": "JP",
        "coord": {
            "lon": 139.559433,
            "lat": 35.706108
        }
    },
    {
        "id": 1856386,
        "name": "Murotsu",
        "state": "",
        "country": "JP",
        "coord": {
            "lon": 134.149994,
            "lat": 33.283329
        }
    },
    {
        "id": 1856392,
        "name": "Muroto-misakicho",
        "state": "",
        "country": "JP",
        "coord": {
            "lon": 134.149994,
            "lat": 33.283329
        }
    },
    {
        "id": 1856426,
        "name": "Muramatsu",
        "state": "",
        "country": "JP",
        "coord": {
            "lon": 139.183334,
            "lat": 37.683331
        }
    },
    {
        "id": 1856434,
        "name": "Murakami",
        "state": "",
        "country": "JP",
        "coord": {
            "lon": 139.483337,
            "lat": 38.23333
        }
    },
    {
        "id": 1856435,
        "name": "Muraimachi-minami",
        "state": "",
        "country": "JP",
        "coord": {
            "lon": 137.966675,
            "lat": 36.166672
        }
    },
    {
        "id": 1856456,
        "name": "Mukō",
        "state": "",
        "country": "JP",
        "coord": {
            "lon": 135.704147,
            "lat": 34.96545
        }
    },
    {
        "id": 1856472,
        "name": "Mukai-awagasaki",
        "state": "",
        "country": "JP",
        "coord": {
            "lon": 136.633331,
            "lat": 36.633331
        }
    },
    {
        "id": 1856476,
        "name": "Muikamachi",
        "state": "",
        "country": "JP",
        "coord": {
            "lon": 138.883331,
            "lat": 37.066669
        }
    },
    {
        "id": 1856488,
        "name": "Mugiura",
        "state": "",
        "country": "JP",
        "coord": {
            "lon": 134.416672,
            "lat": 33.666672
        }
    },
    {
        "id": 1856521,
        "name": "Motomachi",
        "state": "",
        "country": "JP",
        "coord": {
            "lon": 135.366669,
            "lat": 33.73333
        }
    },
    {
        "id": 1856524,
        "name": "Motoichiba",
        "state": "",
        "country": "JP",
        "coord": {
            "lon": 138.649994,
            "lat": 35.150002
        }
    },
    {
        "id": 1856531,
        "name": "Motogoe",
        "state": "",
        "country": "JP",
        "coord": {
            "lon": 129.800003,
            "lat": 32.966671
        }
    },
    {
        "id": 1856560,
        "name": "Morohongō",
        "state": "",
        "country": "JP",
        "coord": {
            "lon": 139.304443,
            "lat": 35.935558
        }
    },
    {
        "id": 1856566,
        "name": "Yamakunimachi-morizane",
        "state": "",
        "country": "JP",
        "coord": {
            "lon": 131.033325,
            "lat": 33.400002
        }
    },
    {
        "id": 1856569,
        "name": "Moriyama",
        "state": "",
        "country": "JP",
        "coord": {
            "lon": 135.983337,
            "lat": 35.066669
        }
    },
    {
        "id": 1856584,
        "name": "Moriguchi",
        "state": "",
        "country": "JP",
        "coord": {
            "lon": 135.566666,
            "lat": 34.73333
        }
    },
    {
        "id": 1856586,
        "name": "Mori",
        "state": "",
        "country": "JP",
        "coord": {
            "lon": 137.933334,
            "lat": 34.833328
        }
    },
    {
        "id": 1856667,
        "name": "Mizunami",
        "state": "",
        "country": "JP",
        "coord": {
            "lon": 137.25,
            "lat": 35.366669
        }
    },
    {
        "id": 1856685,
        "name": "Mizoguchi",
        "state": "",
        "country": "JP",
        "coord": {
            "lon": 133.433334,
            "lat": 35.349998
        }
    },
    {
        "id": 1856697,
        "name": "Miyoshi-shi",
        "state": "",
        "country": "JP",
        "coord": {
            "lon": 137.066666,
            "lat": 35.083328
        }
    },
    {
        "id": 1856698,
        "name": "Miyoshi",
        "state": "",
        "country": "JP",
        "coord": {
            "lon": 132.850006,
            "lat": 34.799999
        }
    },
    {
        "id": 1856703,
        "name": "Miyazu",
        "state": "",
        "country": "JP",
        "coord": {
            "lon": 135.183334,
            "lat": 35.533329
        }
    },
    {
        "id": 1856710,
        "name": "Miyazaki",
        "state": "",
        "country": "JP",
        "coord": {
            "lon": 131.297623,
            "lat": 32.198071
        }
    },
    {
        "id": 1856717,
        "name": "Miyazaki",
        "state": "",
        "country": "JP",
        "coord": {
            "lon": 131.423889,
            "lat": 31.91111
        }
    },
    {
        "id": 1856764,
        "name": "Miyamaechō",
        "state": "",
        "country": "JP",
        "coord": {
            "lon": 139.199997,
            "lat": 36.316669
        }
    },
    {
        "id": 1856775,
        "name": "Miyakonojō",
        "state": "",
        "country": "JP",
        "coord": {
            "lon": 131.066666,
            "lat": 31.73333
        }
    },
    {
        "id": 1856789,
        "name": "Miyake-naka",
        "state": "",
        "country": "JP",
        "coord": {
            "lon": 135.550003,
            "lat": 34.583328
        }
    },
    {
        "id": 1856798,
        "name": "Miyajima",
        "state": "",
        "country": "JP",
        "coord": {
            "lon": 132.326126,
            "lat": 34.30183
        }
    },
    {
        "id": 1856801,
        "name": "Miyaji",
        "state": "",
        "country": "JP",
        "coord": {
            "lon": 133.983337,
            "lat": 34.200001
        }
    },
    {
        "id": 1856826,
        "name": "Miyada",
        "state": "",
        "country": "JP",
        "coord": {
            "lon": 137.949997,
            "lat": 35.76667
        }
    },
    {
        "id": 1856828,
        "name": "Miyata",
        "state": "",
        "country": "JP",
        "coord": {
            "lon": 130.666672,
            "lat": 33.716671
        }
    },
    {
        "id": 1856845,
        "name": "Miwa",
        "state": "",
        "country": "JP",
        "coord": {
            "lon": 138.199997,
            "lat": 36.666672
        }
    },